[{"region":"Yamal-Nenets","coordinates":[642,485],"picker":"redPin","name":"1","url":"","targetFrame":"","fontSize":"12","image":"img\/","description":"","cisDimensions":[1223.25,834]},{"region":"CIS","coordinates":[729,395],"picker":"redDot","name":"test","url":"","targetFrame":"","fontSize":"12","image":"img\/","description":"","cisDimensions":[999.75,685]},{"region":"CIS","coordinates":[528,397],"picker":"redDot","name":"2","url":"","targetFrame":"","fontSize":"12","image":"img\/","description":"","cisDimensions":[1223.25,834]},{"region":"CIS","coordinates":[369,672],"picker":"redDot","name":"1","url":"","targetFrame":"","fontSize":"12","image":"img\/","description":"","cisDimensions":[1223.25,834]},{"region":"CIS","coordinates":[547,491],"picker":"redDot","name":"1","url":"","targetFrame":"","fontSize":"12","image":"img\/","description":"","cisDimensions":[999.75,685]},{"region":"Sakha","coordinates":[354,249],"picker":"redPin","name":"2","url":"","targetFrame":"","fontSize":"12","image":"img\/","description":"","cisDimensions":[999.75,685]},{"region":"Komi","coordinates":[546,432],"picker":"blackStar","name":"23","url":"","targetFrame":"","fontSize":"12","image":"img\/","description":"","cisDimensions":[999.75,685]},{"region":"Yamal-Nenets","coordinates":[573,448],"picker":"blackStar","name":"2","url":"","targetFrame":"","fontSize":"12","image":"img\/","description":"","cisDimensions":[999.75,685]},{"region":"Khanty-Mansiysk","coordinates":[598,391],"picker":"redPin","name":"11","url":"","targetFrame":"","fontSize":"12","image":"img\/","description":"","cisDimensions":[999.75,685]},null,{"region":"Russia","coordinates":[809,507],"picker":"redDot","name":"asd","url":"asd","targetFrame":"","fontSize":"12","image":"img\/","description":"","cisDimensions":[1416.75,963]},{"region":"Russia","coordinates":[872,497],"picker":"redDot","name":"asd","url":"asd","targetFrame":"","fontSize":"12","image":"img\/","description":"","cisDimensions":[1416.75,963]},{"region":"Russia","coordinates":[813,548],"picker":"redDot","name":"asdas","url":"asdad","targetFrame":"","fontSize":"12","image":"img\/","description":"","cisDimensions":[1416.75,963]},{"region":"CIS","coordinates":[858,463],"picker":"redDot","name":"adsdadadsas","url":"asdasda","targetFrame":"","fontSize":"12","image":"img\/","description":"","cisDimensions":[1416.75,963]},{"region":"CIS","coordinates":[873,485],"picker":"redDot","name":"adada","url":"asdsad","targetFrame":"asdasdsa","fontSize":"12","image":"img\/","description":"","cisDimensions":[1416.75,963]},{"region":"CIS","coordinates":[364,171],"picker":"redDot","name":"","url":"","targetFrame":"","fontSize":"12","image":"img\/","description":"","cisDimensions":[1003.5,687]},{"region":"CIS","coordinates":[649,165],"picker":"redDot","name":"test three","url":"","targetFrame":"","fontSize":"12","image":"img\/test3","description":"test three window","cisDimensions":[1003.5,687]},{"region":"CIS","coordinates":[361,207],"picker":"greenDot","name":"adding","url":"","targetFrame":"","fontSize":"12","image":"img\/","description":"adding","cisDimensions":[1003.5,687]},{"region":"Russia","coordinates":[497,375],"picker":"redDot","name":"asd","url":"asd","targetFrame":"asd","fontSize":"12","image":"img\/","description":"","cisDimensions":[1058.25,723.5]},{"region":"CIS","coordinates":[596,204],"picker":"greenDot","name":"test five","url":"","targetFrame":"","fontSize":"12","image":"img\/test five","description":"test five","cisDimensions":[1003.5,687]},{"region":"Russia","coordinates":[596,413],"picker":"redDot","name":"asda","url":"asda","targetFrame":"asd","fontSize":"12","image":"img\/","description":"","cisDimensions":[1058.25,723.5]},{"region":"CIS","coordinates":[774,234],"picker":"greenDot","name":"test six","url":"","targetFrame":"","fontSize":"12","image":"img\/test six","description":"test six","cisDimensions":[1003.5,687]},{"region":"CIS","coordinates":[788,283],"picker":"greenDot","name":"test seven","url":"","targetFrame":"","fontSize":"12","image":"img\/","description":"","cisDimensions":[1003.5,687]},{"region":"CIS","coordinates":[524,446],"picker":"greenDot","name":"test 11","url":"","targetFrame":"","fontSize":"12","image":"img\/","description":"test 11","cisDimensions":[1003.5,687]},{"region":"CIS","coordinates":[690,419],"picker":"greenDot","name":"test 12","url":"","targetFrame":"","fontSize":"12","image":"img\/","description":"test12","cisDimensions":[1003.5,687]},{"region":"CIS","coordinates":[232,355],"picker":"greenDot","name":"tesst13","url":"","targetFrame":"","fontSize":"12","image":"img\/","description":"test13","cisDimensions":[1003.5,687]},{"region":"CIS","coordinates":[413,509],"picker":"greenDot","name":"test15","url":"","targetFrame":"","fontSize":"12","image":"img\/test15","description":"","cisDimensions":[1003.5,687]},{"region":"CIS","coordinates":[593,467],"picker":"greenDot","name":"test16","url":"","targetFrame":"","fontSize":"12","image":"img\/test16","description":"test16","cisDimensions":[1003.5,687]},{"region":"CIS","coordinates":[448,431],"picker":"greenDot","name":"test18","url":"","targetFrame":"","fontSize":"12","image":"img\/test18","description":"test18","cisDimensions":[1003.5,687]},{"region":"CIS","coordinates":[231,445],"picker":"greenDot","name":"test19","url":"","targetFrame":"","fontSize":"12","image":"img\/test19","description":"test19","cisDimensions":[1003.5,687]},{"region":"CIS","coordinates":[843,361],"picker":"greenDot","name":"test21","url":"test21","targetFrame":"","fontSize":"12","image":"img\/test21","description":"test21","cisDimensions":[1003.5,687]},{"region":"CIS","coordinates":[368,461],"picker":"greenDot","name":"teest 22","url":"","targetFrame":"test22","fontSize":"12","image":"img\/","description":"test22","cisDimensions":[1003.5,687]},{"region":"CIS","coordinates":[530,354],"picker":"greenDot","name":"test24","url":"","targetFrame":"","fontSize":"12","image":"img\/","description":"","cisDimensions":[1003.5,687]},{"region":"CIS","coordinates":[680,314],"picker":"greenDot","name":"teset25","url":"","targetFrame":"","fontSize":"12","image":"img\/","description":"test25","cisDimensions":[1003.5,687]},{"region":"CIS","coordinates":[815,404],"picker":"greenDot","name":"test26","url":"","targetFrame":"","fontSize":"12","image":"img\/","description":"test26","cisDimensions":[1003.5,687]},{"region":"Sakha","coordinates":[896,548],"picker":"redDot","name":"asdf","url":"asdf","targetFrame":"asdf","fontSize":"12","image":"img\/asdf","description":"asdfasdf","cisDimensions":[1415.25,962]},{"region":"Sakha","coordinates":[813,448],"picker":"redDot","name":"b","url":"b","targetFrame":"b","fontSize":"12","image":"img\/b","description":"b","cisDimensions":[1415.25,962]},{"region":"Russia","coordinates":[1212,522],"picker":"redDot","name":"a","url":"a","targetFrame":"a","fontSize":"12","image":"img\/a","description":"a","cisDimensions":[1415.25,962]},{"region":"Russia","coordinates":[842,519],"picker":"greenDot","name":"a","url":"b","targetFrame":"c","fontSize":"10","image":"img\/e","description":"d","cisDimensions":[1415.25,962]},{"region":"Russia","coordinates":[837,635],"picker":"blackStar","name":"b","url":"b","targetFrame":"b","fontSize":"10","image":"img\/b","description":"b","cisDimensions":[1415.25,962]},{"region":"Russia","coordinates":[616,461],"picker":"redPin","name":"d","url":"d","targetFrame":"d","fontSize":"10","image":"img\/d","description":"d","cisDimensions":[1415.25,962]},{"region":"Russia","coordinates":[618,663],"picker":"blackStar","name":"d","url":"d","targetFrame":"","fontSize":"10","image":"img\/","description":"","cisDimensions":[1415.25,962]},{"region":"Russia","coordinates":[309,554],"picker":"redPin","name":"e","url":"e","targetFrame":"e","fontSize":"0","image":"img\/e","description":"e","cisDimensions":[1415.25,962]},{"region":"Russia","coordinates":[366,668],"picker":"greenDot","name":"f","url":"f","targetFrame":"","fontSize":"12","image":"img\/e","description":"de","cisDimensions":[1415.25,962]},{"region":"Russia","coordinates":[688,322],"picker":"greenDot","name":"s","url":"s","targetFrame":"s","fontSize":"12","image":"img\/","description":"s","cisDimensions":[1415.25,962]},{"region":"Russia","coordinates":[209,710],"picker":"redDot","name":"w","url":"w","targetFrame":"w","fontSize":"12","image":"img\/","description":"w","cisDimensions":[1415.25,962]},{"region":"Russia","coordinates":[451,545],"picker":"redDot","name":"e","url":"efsda","targetFrame":"asdf","fontSize":"12","image":"img\/","description":"asdf","cisDimensions":[1415.25,962]},{"region":"Russia","coordinates":[689,717],"picker":"redDot","name":"rr","url":"r","targetFrame":"r","fontSize":"12","image":"img\/","description":"r","cisDimensions":[1415.25,962]},{"region":"Russia","coordinates":[906,467],"picker":"redDot","name":"asd","url":"asd","targetFrame":"","fontSize":"12","image":"img\/","description":"","cisDimensions":[1416.75,963]},{"region":"Russia","coordinates":[615,475],"picker":"redDot","name":"asd","url":"asd","targetFrame":"","fontSize":"12","image":"img\/","description":"","cisDimensions":[1416.75,963]},{"region":"CIS","coordinates":[253,458],"picker":"redDot","name":"a","url":"a","targetFrame":"a","fontSize":"12","image":"img\/","description":"","cisDimensions":[1236,842]},{"region":"CIS","coordinates":[300,787],"picker":"redDot","name":"b","url":"b","targetFrame":"b","fontSize":"12","image":"img\/","description":"b","cisDimensions":[1223.25,834]},{"region":"CIS","coordinates":[537,305],"picker":"redPin","name":"","url":"","targetFrame":"","fontSize":"12","image":"img\/d","description":"d","cisDimensions":[1236,842]},{"region":"CIS","coordinates":[493,437],"picker":"greenDot","name":"c","url":"c","targetFrame":"","fontSize":"12","image":"img\/","description":"c","cisDimensions":[1236,842]},{"region":"Russia","coordinates":[750,535],"picker":"redDot","name":"1","url":"","targetFrame":"","fontSize":"12","image":"img\/","description":"","cisDimensions":[1416.75,963]},{"region":"Russia","coordinates":[924,499],"picker":"redDot","name":"2","url":"","targetFrame":"","fontSize":"12","image":"img\/","description":"","cisDimensions":[1416.75,963]},{"region":"Russia","coordinates":[890,608],"picker":"redDot","name":"4","url":"","targetFrame":"","fontSize":"12","image":"img\/","description":"","cisDimensions":[1416.75,963]},{"region":"Russia","coordinates":[819,474],"picker":"redDot","name":"5","url":"","targetFrame":"","fontSize":"12","image":"img\/","description":"","cisDimensions":[1416.75,963]},{"region":"Russia","coordinates":[515,617],"picker":"redDot","name":"6","url":"","targetFrame":"","fontSize":"12","image":"img\/","description":"","cisDimensions":[1416.75,963]},{"region":"Russia","coordinates":[399,765],"picker":"blackStar","name":"7","url":"","targetFrame":"","fontSize":"12","image":"img\/","description":"","cisDimensions":[1416.75,963]},{"region":"Russia","coordinates":[672,597],"picker":"blackStar","name":"8","url":"","targetFrame":"","fontSize":"12","image":"img\/","description":"","cisDimensions":[1416.75,963]},{"region":"Russia","coordinates":[591,371],"picker":"redDot","name":"56","url":"","targetFrame":"","fontSize":"12","image":"img\/","description":"","cisDimensions":[1416.75,963]},{"region":"Russia","coordinates":[941,552],"picker":"redDot","name":"7667","url":"","targetFrame":"","fontSize":"12","image":"img\/","description":"","cisDimensions":[1416.75,963]},{"region":"Russia","coordinates":[775,660],"picker":"redDot","name":"78787","url":"","targetFrame":"","fontSize":"12","image":"img\/","description":"","cisDimensions":[1416.75,963]},{"region":"Russia","coordinates":[906,536],"picker":"redDot","name":"rete","url":"","targetFrame":"","fontSize":"12","image":"img\/","description":"","cisDimensions":[1416.75,963]},{"region":"Russia","coordinates":[920,597],"picker":"redDot","name":"546456456","url":"","targetFrame":"","fontSize":"12","image":"img\/","description":"","cisDimensions":[1416.75,963]},{"region":"Russia","coordinates":[1063,539],"picker":"redDot","name":"456,456","url":"","targetFrame":"","fontSize":"12","image":"img\/","description":"","cisDimensions":[1416.75,963]},{"region":"Russia","coordinates":[952,480],"picker":"redDot","name":"45645,43","url":"34,3","targetFrame":"","fontSize":"12","image":"img\/","description":"","cisDimensions":[1416.75,963]},{"region":"Russia","coordinates":[1151,612],"picker":"redDot","name":"453","url":"","targetFrame":"","fontSize":"12","image":"img\/","description":"","cisDimensions":[1416.75,963]},{"region":"Sakha","coordinates":[659,570],"picker":"redDot","name":"34535","url":"","targetFrame":"","fontSize":"12","image":"img\/","description":"","cisDimensions":[1416.75,963]},{"region":"Sakha","coordinates":[850,497],"picker":"redDot","name":"345345","url":"","targetFrame":"","fontSize":"12","image":"img\/","description":"","cisDimensions":[1416.75,963]},{"region":"Sakha","coordinates":[558,432],"picker":"redDot","name":"34543","url":"","targetFrame":"","fontSize":"12","image":"img\/","description":"","cisDimensions":[1416.75,963]},{"region":"Sakha","coordinates":[593,717],"picker":"redDot","name":"5fge","url":"","targetFrame":"","fontSize":"12","image":"img\/","description":"","cisDimensions":[1416.75,963]},{"region":"Krasnoyarsk","coordinates":[540,393],"picker":"redDot","name":"fsdffsd","url":"","targetFrame":"","fontSize":"12","image":"img\/","description":"","cisDimensions":[1127.40002441,771.200012207]},{"region":"Russia","coordinates":[23,15],"picker":"redDot","name":"","url":"","targetFrame":"","fontSize":"12","image":"img\/","description":"","cisDimensions":[1127.40002441,771.200012207]},{"region":"Russia","coordinates":[489,380],"picker":"redDot","name":"sdfsd","url":"","targetFrame":"","fontSize":"12","image":"img\/","description":"","cisDimensions":[1127.40002441,771.200012207]},{"region":"Smolensk","coordinates":[456,319],"picker":"redDot","name":"","url":"","targetFrame":"","fontSize":"12","image":"img\/","description":"","cisDimensions":[1068,730]},{"region":"CIS","coordinates":[459,323],"picker":"blackStar","name":"Petrov fakultet","url":"peraFax.com","targetFrame":"","fontSize":"12","image":"img\/test.png","description":"Pera ovde studira i on je brat","cisDimensions":[948,650]},{"region":"Russia","coordinates":[614,472],"picker":"redDot","name":"123","url":"","targetFrame":"","fontSize":"12","image":"img\/","description":"","cisDimensions":[1416.75,963]},{"region":"Russia","coordinates":[766,513],"picker":"redPin","name":"12","url":"","targetFrame":"","fontSize":"12","image":"img\/","description":"","cisDimensions":[1416.75,963]},{"region":"Russia","coordinates":[678,580],"picker":"greenDot","name":"34","url":"","targetFrame":"","fontSize":"12","image":"img\/","description":"","cisDimensions":[1416.75,963]},{"region":"Russia","coordinates":[712,395],"picker":"blackStar","name":"","url":"","targetFrame":"","fontSize":"12","image":"img\/","description":"","cisDimensions":[1416.75,963]}]